{"drone_id":1,"timestamp":1746050432245,"latitude":25.276987,"longitude":55.296249,"altitude":78.684525,"pitch":0.86951613,"roll":-0.52956676,"yaw":1.8678513,"battery":99.95,"throttle":0.6672865,"speed":11.376978,"flight_mode":"Auto","gps_fix":true}
{"drone_id":1,"timestamp":1746050432345,"latitude":25.276997259999998,"longitude":55.296249,"altitude":69.776215,"pitch":1.1607928,"roll":-0.17822719,"yaw":-0.1906178,"battery":99.899994,"throttle":0.30920815,"speed":13.107719,"flight_mode":"Auto","gps_fix":true}
{"drone_id":1,"timestamp":1746050432446,"latitude":25.277007519999998,"longitude":55.296249,"altitude":35.504837,"pitch":1.7856867,"roll":-1.1570368,"yaw":4.23886,"battery":99.84999,"throttle":0.02451253,"speed":13.221809,"flight_mode":"Auto","gps_fix":true}
{"drone_id":1,"timestamp":1746050432546,"latitude":25.277017779999998,"longitude":55.296249,"altitude":109.348366,"pitch":1.3946466,"roll":-0.26760697,"yaw":8.189198,"battery":99.79999,"throttle":0.84568894,"speed":4.9954586,"flight_mode":"Auto","gps_fix":true}
{"drone_id":1,"timestamp":1746050432646,"latitude":25.277028039999998,"longitude":55.296249,"altitude":2.206235,"pitch":1.9252775,"roll":-1.2557931,"yaw":10.46289,"battery":99.749985,"throttle":0.87100744,"speed":7.983091,"flight_mode":"Auto","gps_fix":true}
{"drone_id":1,"timestamp":1746050432747,"latitude":25.277038299999997,"longitude":55.296249,"altitude":4.701133,"pitch":0.92544913,"roll":-0.5830209,"yaw":15.051523,"battery":99.69998,"throttle":0.57713544,"speed":3.7838297,"flight_mode":"Auto","gps_fix":true}
{"drone_id":1,"timestamp":1746050432847,"latitude":25.277048559999997,"longitude":55.296249,"altitude":42.169247,"pitch":1.6533813,"roll":-1.5437665,"yaw":15.320351,"battery":99.64998,"throttle":0.34461367,"speed":11.768922,"flight_mode":"Auto","gps_fix":true}
{"drone_id":1,"timestamp":1746050432947,"latitude":25.277058819999997,"longitude":55.296249,"altitude":107.88939,"pitch":1.1131775,"roll":-1.7474451,"yaw":16.351418,"battery":99.599976,"throttle":0.44837022,"speed":0.49292207,"flight_mode":"Auto","gps_fix":true}
{"drone_id":1,"timestamp":1746050433047,"latitude":25.277069079999997,"longitude":55.296249,"altitude":27.023478,"pitch":0.43535304,"roll":-1.6004009,"yaw":18.541426,"battery":99.54997,"throttle":0.72493196,"speed":8.293558,"flight_mode":"Auto","gps_fix":true}
{"drone_id":1,"timestamp":1746050433148,"latitude":25.27707934,"longitude":55.296249,"altitude":73.09816,"pitch":0.9276774,"roll":-1.721674,"yaw":16.419268,"battery":99.49997,"throttle":0.82222176,"speed":13.110643,"flight_mode":"Auto","gps_fix":true}
{"drone_id":1,"timestamp":1746050433248,"latitude":25.2770896,"longitude":55.296249,"altitude":104.25689,"pitch":1.6023519,"roll":-1.7271967,"yaw":20.27447,"battery":99.44997,"throttle":0.12775064,"speed":12.27985,"flight_mode":"Auto","gps_fix":true}
{"drone_id":1,"timestamp":1746050433348,"latitude":25.27709986,"longitude":55.296249,"altitude":6.9729567,"pitch":0.9378085,"roll":-2.1092272,"yaw":16.204393,"battery":99.39996,"throttle":0.62282586,"speed":9.252373,"flight_mode":"Auto","gps_fix":true}
{"drone_id":1,"timestamp":1746050433449,"latitude":25.27711012,"longitude":55.296249,"altitude":117.77625,"pitch":0.57818675,"roll":-1.6295598,"yaw":16.243069,"battery":99.34996,"throttle":0.60665715,"speed":14.465643,"flight_mode":"Auto","gps_fix":true}
{"drone_id":1,"timestamp":1746050433549,"latitude":25.27712038,"longitude":55.296249,"altitude":40.75703,"pitch":0.68446326,"roll":-2.125944,"yaw":13.953553,"battery":99.29996,"throttle":0.010841727,"speed":5.6153245,"flight_mode":"Auto","gps_fix":true}
{"drone_id":1,"timestamp":1746050433649,"latitude":25.27713064,"longitude":55.296249,"altitude":98.38252,"pitch":-0.19771957,"roll":-2.8086295,"yaw":10.03389,"battery":99.249954,"throttle":0.20848083,"speed":8.346454,"flight_mode":"Auto","gps_fix":true}
{"drone_id":1,"timestamp":1746050433750,"latitude":25.2771409,"longitude":55.296249,"altitude":57.791218,"pitch":-0.6307609,"roll":-3.2457368,"yaw":8.89966,"battery":99.19995,"throttle":0.19718003,"speed":12.193333,"flight_mode":"Auto","gps_fix":true}
{"drone_id":1,"timestamp":1746050433850,"latitude":25.27715116,"longitude":55.296249,"altitude":26.767029,"pitch":-0.54465914,"roll":-3.6477733,"yaw":6.0729218,"battery":99.14995,"throttle":0.68772674,"speed":11.94736,"flight_mode":"Auto","gps_fix":true}
{"drone_id":1,"timestamp":1746050433950,"latitude":25.27716142,"longitude":55.296249,"altitude":61.81904,"pitch":-0.49758244,"roll":-3.9877493,"yaw":6.1818466,"battery":99.099945,"throttle":0.22027385,"speed":7.4228435,"flight_mode":"Auto","gps_fix":true}
{"drone_id":1,"timestamp":1746050434050,"latitude":25.27717168,"longitude":55.296249,"altitude":30.820656,"pitch":-1.1501806,"roll":-3.064373,"yaw":1.5333257,"battery":99.04994,"throttle":0.25390375,"speed":6.7798986,"flight_mode":"Auto","gps_fix":true}
{"drone_id":1,"timestamp":1746050434151,"latitude":25.27718194,"longitude":55.296249,"altitude":114.801765,"pitch":-0.6313422,"roll":-3.25832,"yaw":4.517983,"battery":98.99994,"throttle":0.8457302,"speed":2.2014732,"flight_mode":"Auto","gps_fix":true}
{"drone_id":1,"timestamp":1746050434251,"latitude":25.277192199999998,"longitude":55.296249,"altitude":66.98174,"pitch":0.14750934,"roll":-2.6979585,"yaw":0.119455814,"battery":98.949936,"throttle":0.03438449,"speed":8.586694,"flight_mode":"Auto","gps_fix":true}
{"drone_id":1,"timestamp":1746050434351,"latitude":25.277202459999998,"longitude":55.296249,"altitude":101.70645,"pitch":-0.09730935,"roll":-3.103097,"yaw":3.9555335,"battery":98.89993,"throttle":0.09860027,"speed":0.4755807,"flight_mode":"Auto","gps_fix":true}
{"drone_id":1,"timestamp":1746050434452,"latitude":25.277212719999998,"longitude":55.296249,"altitude":83.71028,"pitch":-0.12752795,"roll":-2.3558962,"yaw":-0.59467936,"battery":98.84993,"throttle":0.6936854,"speed":13.828846,"flight_mode":"Auto","gps_fix":true}
{"drone_id":1,"timestamp":1746050434552,"latitude":25.277222979999998,"longitude":55.296249,"altitude":47.647976,"pitch":0.012172937,"roll":-1.3849564,"yaw":-3.1780984,"battery":98.79993,"throttle":0.7353606,"speed":14.815448,"flight_mode":"Auto","gps_fix":true}
{"drone_id":1,"timestamp":1746050434652,"latitude":25.277233239999997,"longitude":55.296249,"altitude":85.67881,"pitch":0.58278036,"roll":-1.8889701,"yaw":-4.7774153,"battery":98.74992,"throttle":0.11849868,"speed":10.868803,"flight_mode":"Auto","gps_fix":true}
{"drone_id":1,"timestamp":1746050434753,"latitude":25.277243499999997,"longitude":55.296249,"altitude":2.3462677,"pitch":1.2521906,"roll":-0.9744265,"yaw":-5.6008773,"battery":98.69992,"throttle":0.41534483,"speed":12.950028,"flight_mode":"Auto","gps_fix":true}
{"drone_id":1,"timestamp":1746050434853,"latitude":25.27725376,"longitude":55.296249,"altitude":93.7805,"pitch":0.8877299,"roll":-1.5065982,"yaw":-9.274653,"battery":98.64992,"throttle":0.4755162,"speed":14.469994,"flight_mode":"Auto","gps_fix":true}
{"drone_id":1,"timestamp":1746050434953,"latitude":25.27726402,"longitude":55.296249,"altitude":94.14242,"pitch":1.8030128,"roll":-2.1209152,"yaw":-6.1885624,"battery":98.599915,"throttle":0.15340555,"speed":10.428868,"flight_mode":"Auto","gps_fix":true}
{"drone_id":1,"timestamp":1746050435054,"latitude":25.27727428,"longitude":55.296249,"altitude":15.425048,"pitch":2.3641741,"roll":-1.9455786,"yaw":-1.2639484,"battery":98.54991,"throttle":0.30763364,"speed":7.8901486,"flight_mode":"Auto","gps_fix":true}
{"drone_id":1,"timestamp":1746050435154,"latitude":25.27728454,"longitude":55.296249,"altitude":104.56964,"pitch":3.0761662,"roll":-1.7468982,"yaw":-2.667745,"battery":98.49991,"throttle":0.9863545,"speed":12.049209,"flight_mode":"Auto","gps_fix":true}
{"drone_id":1,"timestamp":1746050435254,"latitude":25.2772948,"longitude":55.296249,"altitude":31.408867,"pitch":2.8518207,"roll":-2.5944464,"yaw":-4.5801387,"battery":98.449905,"throttle":0.46478593,"speed":1.98214,"flight_mode":"Auto","gps_fix":true}
{"drone_id":1,"timestamp":1746050435355,"latitude":25.27730506,"longitude":55.296249,"altitude":22.689972,"pitch":2.794084,"roll":-2.2822852,"yaw":-8.547813,"battery":98.3999,"throttle":0.53604066,"speed":3.056935,"flight_mode":"Auto","gps_fix":true}
{"drone_id":1,"timestamp":1746050435455,"latitude":25.27731532,"longitude":55.296249,"altitude":37.45751,"pitch":2.59568,"roll":-3.182992,"yaw":-11.467739,"battery":98.3499,"throttle":0.36876154,"speed":4.390086,"flight_mode":"Auto","gps_fix":true}
{"drone_id":1,"timestamp":1746050435555,"latitude":25.27732558,"longitude":55.296249,"altitude":39.162613,"pitch":3.2867994,"roll":-3.590626,"yaw":-9.606149,"battery":98.2999,"throttle":0.12666762,"speed":4.186154,"flight_mode":"Auto","gps_fix":true}
{"drone_id":1,"timestamp":1746050435655,"latitude":25.27733584,"longitude":55.296249,"altitude":16.072998,"pitch":2.7147076,"roll":-4.216366,"yaw":-12.621422,"battery":98.24989,"throttle":0.9845675,"speed":14.98479,"flight_mode":"Auto","gps_fix":true}
{"drone_id":1,"timestamp":1746050435756,"latitude":25.2773461,"longitude":55.296249,"altitude":0.3831482,"pitch":2.5157049,"roll":-5.200457,"yaw":-16.302074,"battery":98.19989,"throttle":0.7055181,"speed":10.922844,"flight_mode":"Auto","gps_fix":true}
{"drone_id":1,"timestamp":1746050435856,"latitude":25.27735636,"longitude":55.296249,"altitude":22.833782,"pitch":2.0005565,"roll":-5.629995,"yaw":-21.224234,"battery":98.14989,"throttle":0.39081836,"speed":8.936442,"flight_mode":"Auto","gps_fix":true}
{"drone_id":1,"timestamp":1746050435956,"latitude":25.27736662,"longitude":55.296249,"altitude":45.349846,"pitch":2.3748643,"roll":-6.024082,"yaw":-16.695095,"battery":98.099884,"throttle":0.70665765,"speed":13.670061,"flight_mode":"Auto","gps_fix":true}
{"drone_id":1,"timestamp":1746050436057,"latitude":25.27737688,"longitude":55.296249,"altitude":69.97176,"pitch":3.092551,"roll":-5.2989464,"yaw":-16.990488,"battery":98.04988,"throttle":0.5461941,"speed":5.4885254,"flight_mode":"Auto","gps_fix":true}
{"drone_id":1,"timestamp":1746050436157,"latitude":25.27738714,"longitude":55.296249,"altitude":34.77509,"pitch":4.0325146,"roll":-4.77103,"yaw":-17.53465,"battery":97.99988,"throttle":0.8597863,"speed":7.0781317,"flight_mode":"Auto","gps_fix":true}
{"drone_id":1,"timestamp":1746050436257,"latitude":25.277397399999998,"longitude":55.296249,"altitude":20.827747,"pitch":4.7226734,"roll":-5.060624,"yaw":-15.535669,"battery":97.949875,"throttle":0.81191814,"speed":12.878915,"flight_mode":"Auto","gps_fix":true}
{"drone_id":1,"timestamp":1746050436358,"latitude":25.277407659999998,"longitude":55.296249,"altitude":20.930885,"pitch":4.272996,"roll":-4.452716,"yaw":-19.318188,"battery":97.89987,"throttle":0.061693072,"speed":13.41941,"flight_mode":"Auto","gps_fix":true}
{"drone_id":1,"timestamp":1746050436458,"latitude":25.27741792,"longitude":55.296249,"altitude":68.49616,"pitch":4.2277136,"roll":-4.122257,"yaw":-18.768335,"battery":97.84987,"throttle":0.2941934,"speed":5.3355074,"flight_mode":"Auto","gps_fix":true}
{"drone_id":1,"timestamp":1746050436558,"latitude":25.27742818,"longitude":55.296249,"altitude":52.134575,"pitch":4.0518575,"roll":-4.7027283,"yaw":-18.766758,"battery":97.799866,"throttle":0.101541996,"speed":6.6461134,"flight_mode":"Auto","gps_fix":true}
{"drone_id":1,"timestamp":1746050436659,"latitude":25.27743844,"longitude":55.296249,"altitude":112.58876,"pitch":4.576824,"roll":-4.2115154,"yaw":-16.714834,"battery":97.74986,"throttle":0.3315214,"speed":14.762979,"flight_mode":"Auto","gps_fix":true}
{"drone_id":1,"timestamp":1746050436759,"latitude":25.2774487,"longitude":55.296249,"altitude":38.640076,"pitch":5.4019094,"roll":-5.0209565,"yaw":-16.782278,"battery":97.69986,"throttle":0.5857737,"speed":10.676213,"flight_mode":"Auto","gps_fix":true}
{"drone_id":1,"timestamp":1746050436859,"latitude":25.27745896,"longitude":55.296249,"altitude":8.658013,"pitch":5.0655546,"roll":-4.249942,"yaw":-19.340103,"battery":97.64986,"throttle":0.9730474,"speed":13.987321,"flight_mode":"Auto","gps_fix":true}
{"drone_id":1,"timestamp":1746050436960,"latitude":25.27746922,"longitude":55.296249,"altitude":115.313354,"pitch":5.691354,"roll":-3.8122988,"yaw":-22.86399,"battery":97.59985,"throttle":0.8761759,"speed":0.5266714,"flight_mode":"Auto","gps_fix":true}
{"drone_id":1,"timestamp":1746050437060,"latitude":25.27747948,"longitude":55.296249,"altitude":7.9307985,"pitch":5.334452,"roll":-3.1026099,"yaw":-24.006655,"battery":97.54985,"throttle":0.28949022,"speed":11.147827,"flight_mode":"Auto","gps_fix":true}
{"drone_id":1,"timestamp":1746050437160,"latitude":25.27748974,"longitude":55.296249,"altitude":41.38384,"pitch":6.040909,"roll":-2.6348684,"yaw":-22.812683,"battery":97.49985,"throttle":0.21376503,"speed":5.6043396,"flight_mode":"Auto","gps_fix":true}
{"drone_id":1,"timestamp":1746050437261,"latitude":25.2775,"longitude":55.296249,"altitude":76.33976,"pitch":5.194739,"roll":-2.9582353,"yaw":-27.44664,"battery":97.449844,"throttle":0.7527906,"speed":11.063504,"flight_mode":"Auto","gps_fix":true}
{"drone_id":1,"timestamp":1746050437361,"latitude":25.2775,"longitude":55.29626402,"altitude":105.5297,"pitch":5.3329635,"roll":-3.2042878,"yaw":-22.903112,"battery":97.39984,"throttle":0.9774339,"speed":10.994627,"flight_mode":"Auto","gps_fix":true}
{"drone_id":1,"timestamp":1746050437461,"latitude":25.2775,"longitude":55.29627904,"altitude":117.55435,"pitch":5.2660623,"roll":-2.6238012,"yaw":-21.233711,"battery":97.34984,"throttle":0.82346714,"speed":7.0945663,"flight_mode":"Auto","gps_fix":true}
{"drone_id":1,"timestamp":1746050437562,"latitude":25.2775,"longitude":55.29629406,"altitude":13.670325,"pitch":4.6332245,"roll":-1.6867883,"yaw":-24.976143,"battery":97.299835,"throttle":0.99310994,"speed":12.655171,"flight_mode":"Auto","gps_fix":true}
{"drone_id":1,"timestamp":1746050437662,"latitude":25.2775,"longitude":55.29630908,"altitude":9.570293,"pitch":4.5153337,"roll":-2.2333438,"yaw":-20.992235,"battery":97.24983,"throttle":0.42764306,"speed":0.6789923,"flight_mode":"Auto","gps_fix":true}
{"drone_id":1,"timestamp":1746050437762,"latitude":25.2775,"longitude":55.2963241,"altitude":35.353474,"pitch":5.098909,"roll":-2.0801096,"yaw":-23.77024,"battery":97.19983,"throttle":0.20433748,"speed":0.009378791,"flight_mode":"Auto","gps_fix":true}
{"drone_id":1,"timestamp":1746050437862,"latitude":25.2775,"longitude":55.29633912,"altitude":87.63575,"pitch":6.0880456,"roll":-1.4038994,"yaw":-25.053783,"battery":97.149826,"throttle":0.63800657,"speed":2.638253,"flight_mode":"Auto","gps_fix":true}
{"drone_id":1,"timestamp":1746050437963,"latitude":25.2775,"longitude":55.296354140000005,"altitude":24.015427,"pitch":5.4986095,"roll":-1.1172473,"yaw":-23.164467,"battery":97.09982,"throttle":0.28587174,"speed":4.1436143,"flight_mode":"Auto","gps_fix":true}
{"drone_id":1,"timestamp":1746050438063,"latitude":25.2775,"longitude":55.296369160000005,"altitude":74.754555,"pitch":5.7549686,"roll":-0.37575102,"yaw":-24.633142,"battery":97.04982,"throttle":0.6477947,"speed":3.1869185,"flight_mode":"Auto","gps_fix":true}
{"drone_id":1,"timestamp":1746050438163,"latitude":25.2775,"longitude":55.296384180000004,"altitude":107.20127,"pitch":6.056891,"roll":-0.2859366,"yaw":-26.526012,"battery":96.99982,"throttle":0.23366511,"speed":3.3557706,"flight_mode":"Auto","gps_fix":true}
{"drone_id":1,"timestamp":1746050438264,"latitude":25.2775,"longitude":55.2963992,"altitude":31.402931,"pitch":6.5525203,"roll":0.1039989,"yaw":-27.506033,"battery":96.949814,"throttle":0.0693475,"speed":9.090171,"flight_mode":"Auto","gps_fix":true}
{"drone_id":1,"timestamp":1746050438364,"latitude":25.2775,"longitude":55.29641422,"altitude":80.03398,"pitch":6.8142633,"roll":0.2770605,"yaw":-30.246191,"battery":96.89981,"throttle":0.64609873,"speed":12.038392,"flight_mode":"Auto","gps_fix":true}
{"drone_id":1,"timestamp":1746050438464,"latitude":25.2775,"longitude":55.29642924,"altitude":42.840584,"pitch":5.8662977,"roll":-0.4097321,"yaw":-28.07699,"battery":96.84981,"throttle":0.3976829,"speed":5.782689,"flight_mode":"Auto","gps_fix":true}
{"drone_id":1,"timestamp":1746050438565,"latitude":25.2775,"longitude":55.29644426,"altitude":101.041046,"pitch":6.7300835,"roll":-0.7602439,"yaw":-24.49063,"battery":96.799805,"throttle":0.49879396,"speed":9.213447,"flight_mode":"Auto","gps_fix":true}
{"drone_id":1,"timestamp":1746050438665,"latitude":25.2775,"longitude":55.29645928,"altitude":11.339049,"pitch":7.126452,"roll":-0.86919737,"yaw":-28.122194,"battery":96.7498,"throttle":0.8357301,"speed":9.528271,"flight_mode":"Auto","gps_fix":true}
{"drone_id":1,"timestamp":1746050438765,"latitude":25.2775,"longitude":55.2964743,"altitude":4.8515797,"pitch":6.601927,"roll":0.07342911,"yaw":-30.141573,"battery":96.6998,"throttle":0.69374514,"speed":13.274709,"flight_mode":"Auto","gps_fix":true}
{"drone_id":1,"timestamp":1746050438866,"latitude":25.2775,"longitude":55.29648932,"altitude":92.78664,"pitch":5.869832,"roll":0.81981874,"yaw":-27.373821,"battery":96.649796,"throttle":0.17353392,"speed":6.0544643,"flight_mode":"Auto","gps_fix":true}
{"drone_id":1,"timestamp":1746050438966,"latitude":25.2775,"longitude":55.29650434,"altitude":77.18429,"pitch":4.914873,"roll":-0.031896353,"yaw":-29.44153,"battery":96.59979,"throttle":0.78391373,"speed":6.243664,"flight_mode":"Auto","gps_fix":true}
{"drone_id":1,"timestamp":1746050439066,"latitude":25.2775,"longitude":55.29651936,"altitude":72.17905,"pitch":5.9004,"roll":0.767498,"yaw":-29.43135,"battery":96.54979,"throttle":0.43829894,"speed":4.206791,"flight_mode":"Auto","gps_fix":true}
{"drone_id":1,"timestamp":1746050439166,"latitude":25.2775,"longitude":55.296534380000004,"altitude":5.1425743,"pitch":6.8560414,"roll":0.6168041,"yaw":-28.31708,"battery":96.49979,"throttle":0.60644853,"speed":1.8069363,"flight_mode":"Auto","gps_fix":true}
{"drone_id":1,"timestamp":1746050439267,"latitude":25.2775,"longitude":55.2965494,"altitude":109.143745,"pitch":7.296995,"roll":-0.29702592,"yaw":-28.727118,"battery":96.44978,"throttle":0.7014152,"speed":5.270455,"flight_mode":"Auto","gps_fix":true}
{"drone_id":1,"timestamp":1746050439367,"latitude":25.2775,"longitude":55.29656442,"altitude":111.31153,"pitch":7.916505,"roll":-0.093899965,"yaw":-31.275974,"battery":96.39978,"throttle":0.8432174,"speed":2.144773,"flight_mode":"Auto","gps_fix":true}
{"drone_id":1,"timestamp":1746050439467,"latitude":25.2775,"longitude":55.29657944,"altitude":14.016094,"pitch":8.358205,"roll":-0.6945524,"yaw":-31.713844,"battery":96.34978,"throttle":0.28885806,"speed":1.6763592,"flight_mode":"Auto","gps_fix":true}
{"drone_id":1,"timestamp":1746050439568,"latitude":25.2775,"longitude":55.29659446,"altitude":15.958958,"pitch":8.845401,"roll":-0.4094162,"yaw":-31.904139,"battery":96.299774,"throttle":0.7041552,"speed":4.4236083,"flight_mode":"Auto","gps_fix":true}
{"drone_id":1,"timestamp":1746050439668,"latitude":25.2775,"longitude":55.29660948,"altitude":98.87061,"pitch":8.653138,"roll":-1.3845372,"yaw":-30.653336,"battery":96.24977,"throttle":0.036267877,"speed":11.00024,"flight_mode":"Auto","gps_fix":true}
{"drone_id":1,"timestamp":1746050439768,"latitude":25.2775,"longitude":55.2966245,"altitude":104.48446,"pitch":7.915476,"roll":-2.1539066,"yaw":-27.030428,"battery":96.19977,"throttle":0.96989465,"speed":14.932989,"flight_mode":"Auto","gps_fix":true}
{"drone_id":1,"timestamp":1746050439869,"latitude":25.2775,"longitude":55.29663952,"altitude":80.88724,"pitch":8.856986,"roll":-2.0379624,"yaw":-25.967152,"battery":96.149765,"throttle":0.33309376,"speed":12.301392,"flight_mode":"Auto","gps_fix":true}
{"drone_id":1,"timestamp":1746050439969,"latitude":25.2775,"longitude":55.29665454,"altitude":21.354233,"pitch":8.754595,"roll":-2.6229777,"yaw":-21.528156,"battery":96.09976,"throttle":0.916855,"speed":8.362291,"flight_mode":"Auto","gps_fix":true}
{"drone_id":1,"timestamp":1746050440069,"latitude":25.2775,"longitude":55.29666956,"altitude":6.7552757,"pitch":8.320653,"roll":-2.9621265,"yaw":-24.275635,"battery":96.04976,"throttle":0.8384582,"speed":6.6871834,"flight_mode":"Auto","gps_fix":true}
{"drone_id":1,"timestamp":1746050440169,"latitude":25.2775,"longitude":55.29668458,"altitude":73.414276,"pitch":8.019329,"roll":-3.2424927,"yaw":-20.404804,"battery":95.999756,"throttle":0.9256836,"speed":5.7364993,"flight_mode":"Auto","gps_fix":true}
{"drone_id":1,"timestamp":1746050440270,"latitude":25.2775,"longitude":55.2966996,"altitude":18.929014,"pitch":7.379101,"roll":-2.3352683,"yaw":-25.176413,"battery":95.94975,"throttle":0.4239583,"speed":10.539467,"flight_mode":"Auto","gps_fix":true}
{"drone_id":1,"timestamp":1746050440370,"latitude":25.2775,"longitude":55.296714619999996,"altitude":61.457436,"pitch":8.061935,"roll":-3.2558727,"yaw":-27.559967,"battery":95.89975,"throttle":0.7419995,"speed":0.9208846,"flight_mode":"Auto","gps_fix":true}
{"drone_id":1,"timestamp":1746050440470,"latitude":25.2775,"longitude":55.29672964,"altitude":102.598885,"pitch":8.519488,"roll":-3.4420204,"yaw":-26.168627,"battery":95.84975,"throttle":0.0498662,"speed":6.865679,"flight_mode":"Auto","gps_fix":true}
{"drone_id":1,"timestamp":1746050440571,"latitude":25.2775,"longitude":55.29674466,"altitude":72.51832,"pitch":8.942856,"roll":-3.8889637,"yaw":-29.862556,"battery":95.79974,"throttle":0.23661292,"speed":3.0987434,"flight_mode":"Auto","gps_fix":true}
{"drone_id":1,"timestamp":1746050440671,"latitude":25.2775,"longitude":55.29675968,"altitude":54.366287,"pitch":8.0993805,"roll":-4.3750367,"yaw":-32.052185,"battery":95.74974,"throttle":0.43087792,"speed":9.037514,"flight_mode":"Auto","gps_fix":true}
{"drone_id":1,"timestamp":1746050440771,"latitude":25.2775,"longitude":55.2967747,"altitude":82.20909,"pitch":8.956945,"roll":-3.8200922,"yaw":-30.33562,"battery":95.69974,"throttle":0.022689342,"speed":3.663901,"flight_mode":"Auto","gps_fix":true}
{"drone_id":1,"timestamp":1746050440872,"latitude":25.2775,"longitude":55.29678972,"altitude":12.823863,"pitch":8.1019745,"roll":-3.039643,"yaw":-31.003874,"battery":95.649734,"throttle":0.92432547,"speed":1.9241703,"flight_mode":"Auto","gps_fix":true}
{"drone_id":1,"timestamp":1746050440972,"latitude":25.2775,"longitude":55.29680474,"altitude":111.9103,"pitch":8.113216,"roll":-2.6796815,"yaw":-32.372093,"battery":95.59973,"throttle":0.62024224,"speed":0.37585795,"flight_mode":"Auto","gps_fix":true}
{"drone_id":1,"timestamp":1746050441072,"latitude":25.2775,"longitude":55.29681976,"altitude":102.018456,"pitch":8.577317,"roll":-2.9973783,"yaw":-35.65089,"battery":95.54973,"throttle":0.24533904,"speed":7.02482,"flight_mode":"Auto","gps_fix":true}
{"drone_id":1,"timestamp":1746050441172,"latitude":25.2775,"longitude":55.29683478,"altitude":64.588326,"pitch":9.497063,"roll":-2.0356095,"yaw":-32.673763,"battery":95.499725,"throttle":0.41203678,"speed":3.360672,"flight_mode":"Auto","gps_fix":true}
{"drone_id":1,"timestamp":1746050441273,"latitude":25.2775,"longitude":55.2968498,"altitude":33.432297,"pitch":9.508644,"roll":-1.2334242,"yaw":-34.021526,"battery":95.44972,"throttle":0.5051838,"speed":7.875302,"flight_mode":"Auto","gps_fix":true}
{"drone_id":1,"timestamp":1746050441373,"latitude":25.2775,"longitude":55.296864819999996,"altitude":103.20548,"pitch":9.345603,"roll":-0.8057258,"yaw":-36.85183,"battery":95.39972,"throttle":0.8889303,"speed":13.14021,"flight_mode":"Auto","gps_fix":true}
{"drone_id":1,"timestamp":1746050441473,"latitude":25.2775,"longitude":55.296879839999995,"altitude":30.649052,"pitch":9.95905,"roll":0.05383873,"yaw":-32.70485,"battery":95.34972,"throttle":0.61723626,"speed":2.2536743,"flight_mode":"Auto","gps_fix":true}
{"drone_id":1,"timestamp":1746050441573,"latitude":25.2775,"longitude":55.296894859999995,"altitude":47.48654,"pitch":10.198984,"roll":0.55044127,"yaw":-31.279716,"battery":95.29971,"throttle":0.60005,"speed":0.55277467,"flight_mode":"Auto","gps_fix":true}
{"drone_id":1,"timestamp":1746050441674,"latitude":25.2775,"longitude":55.29690988,"altitude":92.55815,"pitch":11.114086,"roll":-0.4464383,"yaw":-32.01713,"battery":95.24971,"throttle":0.84700775,"speed":2.083506,"flight_mode":"Auto","gps_fix":true}
{"drone_id":1,"timestamp":1746050441774,"latitude":25.2775,"longitude":55.2969249,"altitude":100.79892,"pitch":10.569413,"roll":-0.74448705,"yaw":-36.597847,"battery":95.19971,"throttle":0.09700358,"speed":12.569082,"flight_mode":"Auto","gps_fix":true}
{"drone_id":1,"timestamp":1746050441875,"latitude":25.2775,"longitude":55.29693992,"altitude":10.537577,"pitch":11.113967,"roll":-1.57463,"yaw":-39.23193,"battery":95.149704,"throttle":0.56589377,"speed":6.0571094,"flight_mode":"Auto","gps_fix":true}
{"drone_id":1,"timestamp":1746050441975,"latitude":25.2775,"longitude":55.29695494,"altitude":97.6794,"pitch":10.119941,"roll":-1.1187091,"yaw":-43.32007,"battery":95.0997,"throttle":0.03526199,"speed":7.9539514,"flight_mode":"Auto","gps_fix":true}
{"drone_id":1,"timestamp":1746050442075,"latitude":25.2775,"longitude":55.29696996,"altitude":96.13034,"pitch":9.338895,"roll":-1.4509029,"yaw":-42.018387,"battery":95.0497,"throttle":0.43547785,"speed":11.47338,"flight_mode":"Auto","gps_fix":true}
{"drone_id":1,"timestamp":1746050442176,"latitude":25.2775,"longitude":55.29698498,"altitude":111.520325,"pitch":9.165331,"roll":-0.6811187,"yaw":-40.556793,"battery":94.999695,"throttle":0.439034,"speed":2.0168352,"flight_mode":"Auto","gps_fix":true}
{"drone_id":1,"timestamp":1746050442276,"latitude":25.2775,"longitude":55.297,"altitude":2.6573324,"pitch":8.240595,"roll":0.0027024746,"yaw":-42.059162,"battery":94.94969,"throttle":0.41041315,"speed":6.0736566,"flight_mode":"Auto","gps_fix":true}
{"drone_id":1,"timestamp":1746050442376,"latitude":25.27748974,"longitude":55.297,"altitude":30.131279,"pitch":7.4188404,"roll":-0.6890912,"yaw":-40.71266,"battery":94.89969,"throttle":0.11461997,"speed":5.52846,"flight_mode":"Auto","gps_fix":true}
{"drone_id":1,"timestamp":1746050442476,"latitude":25.27747948,"longitude":55.297,"altitude":84.200966,"pitch":7.968339,"roll":-0.74678636,"yaw":-44.07292,"battery":94.849686,"throttle":0.96025646,"speed":1.0168093,"flight_mode":"Auto","gps_fix":true}
{"drone_id":1,"timestamp":1746050442577,"latitude":25.27746922,"longitude":55.297,"altitude":0.26390076,"pitch":7.958209,"roll":-0.3454771,"yaw":-39.46889,"battery":94.79968,"throttle":0.6170256,"speed":3.0682092,"flight_mode":"Auto","gps_fix":true}
{"drone_id":1,"timestamp":1746050442677,"latitude":25.27745896,"longitude":55.297,"altitude":3.8345432,"pitch":8.46373,"roll":0.6515031,"yaw":-41.937668,"battery":94.74968,"throttle":0.9744805,"speed":2.669465,"flight_mode":"Auto","gps_fix":true}
{"drone_id":1,"timestamp":1746050442777,"latitude":25.2774487,"longitude":55.297,"altitude":6.030407,"pitch":8.163091,"roll":0.6918261,"yaw":-45.01774,"battery":94.69968,"throttle":0.1315912,"speed":2.8105402,"flight_mode":"Auto","gps_fix":true}
{"drone_id":1,"timestamp":1746050442878,"latitude":25.27743844,"longitude":55.297,"altitude":3.202386,"pitch":8.18724,"roll":1.4576285,"yaw":-47.771355,"battery":94.64967,"throttle":0.06403792,"speed":11.226046,"flight_mode":"Auto","gps_fix":true}
{"drone_id":1,"timestamp":1746050442978,"latitude":25.27742818,"longitude":55.297,"altitude":71.67163,"pitch":8.716509,"roll":2.4423826,"yaw":-47.701622,"battery":94.59967,"throttle":0.3092842,"speed":12.0503,"flight_mode":"Auto","gps_fix":true}
{"drone_id":1,"timestamp":1746050443078,"latitude":25.27741792,"longitude":55.297,"altitude":64.381226,"pitch":8.302348,"roll":2.414342,"yaw":-46.635765,"battery":94.54967,"throttle":0.20649624,"speed":2.3238678,"flight_mode":"Auto","gps_fix":true}
{"drone_id":1,"timestamp":1746050443179,"latitude":25.277407659999998,"longitude":55.297,"altitude":21.578321,"pitch":8.829938,"roll":2.631466,"yaw":-43.0549,"battery":94.499664,"throttle":0.432333,"speed":2.185446,"flight_mode":"Auto","gps_fix":true}
{"drone_id":1,"timestamp":1746050443279,"latitude":25.277397399999998,"longitude":55.297,"altitude":68.52077,"pitch":8.036232,"roll":2.6528845,"yaw":-41.051083,"battery":94.44966,"throttle":0.510967,"speed":4.6961155,"flight_mode":"Auto","gps_fix":true}
{"drone_id":1,"timestamp":1746050443379,"latitude":25.27738714,"longitude":55.297,"altitude":10.365143,"pitch":7.84078,"roll":3.07011,"yaw":-37.73883,"battery":94.39966,"throttle":0.7447659,"speed":1.4522356,"flight_mode":"Auto","gps_fix":true}
{"drone_id":1,"timestamp":1746050443480,"latitude":25.27737688,"longitude":55.297,"altitude":17.300663,"pitch":7.965844,"roll":3.2777154,"yaw":-35.63224,"battery":94.349655,"throttle":0.32067895,"speed":12.745238,"flight_mode":"Auto","gps_fix":true}
{"drone_id":1,"timestamp":1746050443580,"latitude":25.27736662,"longitude":55.297,"altitude":18.187952,"pitch":8.528097,"roll":4.1872287,"yaw":-38.018494,"battery":94.29965,"throttle":0.6934874,"speed":13.076602,"flight_mode":"Auto","gps_fix":true}
{"drone_id":1,"timestamp":1746050443680,"latitude":25.27735636,"longitude":55.297,"altitude":27.050556,"pitch":8.176069,"roll":4.597331,"yaw":-39.44254,"battery":94.24965,"throttle":0.27550876,"speed":6.37658,"flight_mode":"Auto","gps_fix":true}
{"drone_id":1,"timestamp":1746050443781,"latitude":25.2773461,"longitude":55.297,"altitude":80.67885,"pitch":7.690319,"roll":4.2197704,"yaw":-39.64937,"battery":94.199646,"throttle":0.58124495,"speed":9.665672,"flight_mode":"Auto","gps_fix":true}
{"drone_id":1,"timestamp":1746050443881,"latitude":25.27733584,"longitude":55.297,"altitude":6.435828,"pitch":6.7085037,"roll":4.1549397,"yaw":-37.866405,"battery":94.14964,"throttle":0.29285133,"speed":2.2094893,"flight_mode":"Auto","gps_fix":true}
{"drone_id":1,"timestamp":1746050443981,"latitude":25.27732558,"longitude":55.297,"altitude":110.71913,"pitch":7.6419106,"roll":3.962461,"yaw":-40.651253,"battery":94.09964,"throttle":0.32271814,"speed":7.847081,"flight_mode":"Auto","gps_fix":true}
{"drone_id":1,"timestamp":1746050444082,"latitude":25.27731532,"longitude":55.297,"altitude":29.179615,"pitch":7.201913,"roll":3.8653908,"yaw":-44.089676,"battery":94.04964,"throttle":0.7697885,"speed":11.299868,"flight_mode":"Auto","gps_fix":true}
{"drone_id":1,"timestamp":1746050444182,"latitude":25.27730506,"longitude":55.297,"altitude":0.7825327,"pitch":7.0273,"roll":2.9710305,"yaw":-44.36578,"battery":93.99963,"throttle":0.029396057,"speed":0.095443726,"flight_mode":"Auto","gps_fix":true}
{"drone_id":1,"timestamp":1746050444282,"latitude":25.2772948,"longitude":55.297,"altitude":63.976624,"pitch":7.9726133,"roll":2.6096096,"yaw":-39.731667,"battery":93.94963,"throttle":0.30384612,"speed":6.51,"flight_mode":"Auto","gps_fix":true}
{"drone_id":1,"timestamp":1746050444382,"latitude":25.27728454,"longitude":55.297,"altitude":75.095146,"pitch":8.231816,"roll":1.8104589,"yaw":-36.075165,"battery":93.89963,"throttle":0.4905398,"speed":9.814907,"flight_mode":"Auto","gps_fix":true}
{"drone_id":1,"timestamp":1746050444483,"latitude":25.27727428,"longitude":55.297,"altitude":74.29676,"pitch":9.002049,"roll":0.8570194,"yaw":-33.120476,"battery":93.849625,"throttle":0.6588787,"speed":8.592294,"flight_mode":"Auto","gps_fix":true}
{"drone_id":1,"timestamp":1746050444583,"latitude":25.27726402,"longitude":55.297,"altitude":117.125404,"pitch":8.235615,"roll":0.62688875,"yaw":-31.370323,"battery":93.79962,"throttle":0.9818456,"speed":8.424051,"flight_mode":"Auto","gps_fix":true}
{"drone_id":1,"timestamp":1746050444683,"latitude":25.27725376,"longitude":55.297,"altitude":19.5296,"pitch":8.49524,"roll":0.6128144,"yaw":-32.077442,"battery":93.74962,"throttle":0.25417674,"speed":2.6062937,"flight_mode":"Auto","gps_fix":true}
{"drone_id":1,"timestamp":1746050444784,"latitude":25.277243499999997,"longitude":55.297,"altitude":2.0776892,"pitch":8.909588,"roll":0.5349574,"yaw":-32.11085,"battery":93.699615,"throttle":0.38291228,"speed":9.265498,"flight_mode":"Auto","gps_fix":true}
{"drone_id":1,"timestamp":1746050444884,"latitude":25.277233239999997,"longitude":55.297,"altitude":73.909775,"pitch":8.183013,"roll":1.0235183,"yaw":-36.30043,"battery":93.64961,"throttle":0.5351827,"speed":5.669444,"flight_mode":"Auto","gps_fix":true}
{"drone_id":1,"timestamp":1746050444984,"latitude":25.277222979999998,"longitude":55.297,"altitude":79.728195,"pitch":7.6174145,"roll":0.17495441,"yaw":-38.843956,"battery":93.59961,"throttle":0.14172351,"speed":13.500323,"flight_mode":"Auto","gps_fix":true}
{"drone_id":1,"timestamp":1746050445085,"latitude":25.277212719999998,"longitude":55.297,"altitude":33.75103,"pitch":6.9756713,"roll":-0.5415387,"yaw":-39.174362,"battery":93.54961,"throttle":0.9979111,"speed":4.842637,"flight_mode":"Auto","gps_fix":true}
{"drone_id":1,"timestamp":1746050445185,"latitude":25.277202459999998,"longitude":55.297,"altitude":24.317966,"pitch":7.0432262,"roll":-0.42690802,"yaw":-41.662636,"battery":93.4996,"throttle":0.038763404,"speed":13.355014,"flight_mode":"Auto","gps_fix":true}
{"drone_id":1,"timestamp":1746050445286,"latitude":25.277192199999998,"longitude":55.297,"altitude":80.45464,"pitch":7.3148694,"roll":0.2079072,"yaw":-42.25691,"battery":93.4496,"throttle":0.3791777,"speed":13.879934,"flight_mode":"Auto","gps_fix":true}
{"drone_id":1,"timestamp":1746050445386,"latitude":25.27718194,"longitude":55.297,"altitude":45.44761,"pitch":6.521343,"roll":-0.29254913,"yaw":-44.18675,"battery":93.3996,"throttle":0.67639494,"speed":8.342808,"flight_mode":"Auto","gps_fix":true}
{"drone_id":1,"timestamp":1746050445486,"latitude":25.27717168,"longitude":55.297,"altitude":97.08688,"pitch":5.74413,"roll":0.58202505,"yaw":-40.630657,"battery":93.349594,"throttle":0.49382305,"speed":13.597414,"flight_mode":"Auto","gps_fix":true}
{"drone_id":1,"timestamp":1746050445586,"latitude":25.27716142,"longitude":55.297,"altitude":6.791725,"pitch":5.1923738,"roll":0.53086615,"yaw":-39.34841,"battery":93.29959,"throttle":0.17962837,"speed":2.780918,"flight_mode":"Auto","gps_fix":true}
{"drone_id":1,"timestamp":1746050445687,"latitude":25.27715116,"longitude":55.297,"altitude":96.63906,"pitch":5.4546857,"roll":1.3462772,"yaw":-37.347336,"battery":93.24959,"throttle":0.3425479,"speed":5.510618,"flight_mode":"Auto","gps_fix":true}
{"drone_id":1,"timestamp":1746050445787,"latitude":25.2771409,"longitude":55.297,"altitude":4.4776726,"pitch":6.059203,"roll":1.6421237,"yaw":-37.856583,"battery":93.199585,"throttle":0.30773687,"speed":13.805652,"flight_mode":"Auto","gps_fix":true}
{"drone_id":1,"timestamp":1746050445887,"latitude":25.27713064,"longitude":55.297,"altitude":53.18936,"pitch":5.117366,"roll":1.3476484,"yaw":-40.238758,"battery":93.14958,"throttle":0.31948054,"speed":2.5810719,"flight_mode":"Auto","gps_fix":true}
{"drone_id":1,"timestamp":1746050445988,"latitude":25.27712038,"longitude":55.297,"altitude":41.05146,"pitch":5.360483,"roll":1.2301617,"yaw":-36.68506,"battery":93.09958,"throttle":0.4589479,"speed":1.5276396,"flight_mode":"Auto","gps_fix":true}
{"drone_id":1,"timestamp":1746050446088,"latitude":25.27711012,"longitude":55.297,"altitude":66.6285,"pitch":5.857685,"roll":0.5296657,"yaw":-32.215565,"battery":93.049576,"throttle":0.68918514,"speed":5.627861,"flight_mode":"Auto","gps_fix":true}
{"drone_id":1,"timestamp":1746050446188,"latitude":25.27709986,"longitude":55.297,"altitude":67.89338,"pitch":4.919261,"roll":-0.18138123,"yaw":-28.073914,"battery":92.99957,"throttle":0.4488864,"speed":9.494539,"flight_mode":"Auto","gps_fix":true}
{"drone_id":1,"timestamp":1746050446288,"latitude":25.2770896,"longitude":55.297,"altitude":96.200134,"pitch":4.966478,"roll":0.029574394,"yaw":-32.42479,"battery":92.94957,"throttle":0.16070533,"speed":8.539701,"flight_mode":"Auto","gps_fix":true}
{"drone_id":1,"timestamp":1746050446388,"latitude":25.27707934,"longitude":55.297,"altitude":47.27228,"pitch":4.0535483,"roll":-0.5140581,"yaw":-29.040045,"battery":92.89957,"throttle":0.7757616,"speed":9.507878,"flight_mode":"Auto","gps_fix":true}
{"drone_id":1,"timestamp":1746050446488,"latitude":25.277069079999997,"longitude":55.297,"altitude":49.740757,"pitch":4.476348,"roll":-0.35588932,"yaw":-24.99925,"battery":92.84956,"throttle":0.93890643,"speed":2.9917252,"flight_mode":"Auto","gps_fix":true}
{"drone_id":1,"timestamp":1746050446589,"latitude":25.277058819999997,"longitude":55.297,"altitude":100.37889,"pitch":4.561311,"roll":0.5708842,"yaw":-26.170135,"battery":92.79956,"throttle":0.009707332,"speed":2.8219576,"flight_mode":"Auto","gps_fix":true}
{"drone_id":1,"timestamp":1746050446689,"latitude":25.277048559999997,"longitude":55.297,"altitude":64.522415,"pitch":4.889678,"roll":0.507627,"yaw":-27.899614,"battery":92.74956,"throttle":0.1524477,"speed":9.309429,"flight_mode":"Auto","gps_fix":true}
{"drone_id":1,"timestamp":1746050446789,"latitude":25.277038299999997,"longitude":55.297,"altitude":40.01899,"pitch":5.1391964,"roll":0.5130899,"yaw":-30.155258,"battery":92.699554,"throttle":0.71102524,"speed":9.376827,"flight_mode":"Auto","gps_fix":true}
{"drone_id":1,"timestamp":1746050446889,"latitude":25.277028039999998,"longitude":55.297,"altitude":10.463991,"pitch":6.053818,"roll":0.28639007,"yaw":-26.63603,"battery":92.64955,"throttle":0.8457947,"speed":8.383302,"flight_mode":"Auto","gps_fix":true}
{"drone_id":1,"timestamp":1746050446989,"latitude":25.277017779999998,"longitude":55.297,"altitude":3.7593699,"pitch":5.3243294,"roll":0.8983817,"yaw":-25.51484,"battery":92.59955,"throttle":0.8386562,"speed":5.453541,"flight_mode":"Auto","gps_fix":true}
{"drone_id":1,"timestamp":1746050447089,"latitude":25.277007519999998,"longitude":55.297,"altitude":6.8181467,"pitch":4.569582,"roll":0.1413796,"yaw":-26.458782,"battery":92.549545,"throttle":0.1272465,"speed":14.710915,"flight_mode":"Auto","gps_fix":true}
{"drone_id":1,"timestamp":1746050447190,"latitude":25.276997259999998,"longitude":55.297,"altitude":115.53576,"pitch":4.7749906,"roll":0.47918773,"yaw":-31.414316,"battery":92.49954,"throttle":0.94007754,"speed":14.13978,"flight_mode":"Auto","gps_fix":true}
{"drone_id":1,"timestamp":1746050447290,"latitude":25.276987,"longitude":55.296249,"altitude":58.569416,"pitch":4.256162,"roll":0.65724087,"yaw":-34.210415,"battery":92.44954,"throttle":0.33898747,"speed":13.923417,"flight_mode":"Auto","gps_fix":true}
{"drone_id":1,"timestamp":1746050447390,"latitude":25.276987,"longitude":55.296249,"altitude":25.741066,"pitch":3.9543972,"roll":1.561279,"yaw":-38.359104,"battery":92.399536,"throttle":0.19186687,"speed":5.015314,"flight_mode":"Auto","gps_fix":true}
{"drone_id":1,"timestamp":1746050447491,"latitude":25.276997259999998,"longitude":55.296249,"altitude":88.53145,"pitch":3.3156426,"roll":0.8617897,"yaw":-37.02553,"battery":92.34953,"throttle":0.87578714,"speed":11.86802,"flight_mode":"Auto","gps_fix":true}
{"drone_id":1,"timestamp":1746050447591,"latitude":25.277007519999998,"longitude":55.296249,"altitude":55.991062,"pitch":3.209797,"roll":0.436404,"yaw":-34.01938,"battery":92.29953,"throttle":0.83082247,"speed":7.1912203,"flight_mode":"Auto","gps_fix":true}
{"drone_id":1,"timestamp":1746050447691,"latitude":25.277017779999998,"longitude":55.296249,"altitude":56.56514,"pitch":2.496817,"roll":-0.22534394,"yaw":-34.692093,"battery":92.24953,"throttle":0.0864346,"speed":0.5657548,"flight_mode":"Auto","gps_fix":true}
{"drone_id":1,"timestamp":1746050447792,"latitude":25.277028039999998,"longitude":55.296249,"altitude":72.81356,"pitch":3.3391535,"roll":-1.1073296,"yaw":-39.030792,"battery":92.199524,"throttle":0.99411,"speed":8.520704,"flight_mode":"Auto","gps_fix":true}
{"drone_id":1,"timestamp":1746050447892,"latitude":25.277038299999997,"longitude":55.296249,"altitude":54.03255,"pitch":3.685651,"roll":-0.97519493,"yaw":-43.846054,"battery":92.14952,"throttle":0.57046807,"speed":6.3184977,"flight_mode":"Auto","gps_fix":true}
{"drone_id":1,"timestamp":1746050447992,"latitude":25.277048559999997,"longitude":55.296249,"altitude":103.44766,"pitch":3.7688367,"roll":-0.3444028,"yaw":-47.437557,"battery":92.09952,"throttle":0.80534697,"speed":5.570419,"flight_mode":"Auto","gps_fix":true}
{"drone_id":1,"timestamp":1746050448093,"latitude":25.277058819999997,"longitude":55.296249,"altitude":16.638237,"pitch":3.2069578,"roll":-0.78140974,"yaw":-48.451035,"battery":92.049515,"throttle":0.31543636,"speed":6.915475,"flight_mode":"Auto","gps_fix":true}
{"drone_id":1,"timestamp":1746050448193,"latitude":25.277069079999997,"longitude":55.296249,"altitude":109.35199,"pitch":3.4346957,"roll":0.099565506,"yaw":-49.13176,"battery":91.99951,"throttle":0.6378472,"speed":8.144611,"flight_mode":"Auto","gps_fix":true}
{"drone_id":1,"timestamp":1746050448293,"latitude":25.27707934,"longitude":55.296249,"altitude":111.561844,"pitch":3.6226733,"roll":0.14530134,"yaw":-53.923782,"battery":91.94951,"throttle":0.7475467,"speed":11.14873,"flight_mode":"Auto","gps_fix":true}
{"drone_id":1,"timestamp":1746050448393,"latitude":25.2770896,"longitude":55.296249,"altitude":104.655075,"pitch":4.1814904,"roll":-0.68904996,"yaw":-54.484863,"battery":91.899506,"throttle":0.38371038,"speed":2.1483474,"flight_mode":"Auto","gps_fix":true}
{"drone_id":1,"timestamp":1746050448494,"latitude":25.27709986,"longitude":55.296249,"altitude":52.497055,"pitch":4.7158175,"roll":-1.262908,"yaw":-58.709988,"battery":91.8495,"throttle":0.9575751,"speed":10.0966215,"flight_mode":"Auto","gps_fix":true}
{"drone_id":1,"timestamp":1746050448594,"latitude":25.27711012,"longitude":55.296249,"altitude":116.62375,"pitch":4.1300893,"roll":-0.8042815,"yaw":-59.599716,"battery":91.7995,"throttle":0.36868858,"speed":6.6900444,"flight_mode":"Auto","gps_fix":true}
{"drone_id":1,"timestamp":1746050448694,"latitude":25.27712038,"longitude":55.296249,"altitude":28.661642,"pitch":4.084999,"roll":-0.30373454,"yaw":-56.94015,"battery":91.7495,"throttle":0.62158585,"speed":8.290785,"flight_mode":"Auto","gps_fix":true}
{"drone_id":1,"timestamp":1746050448795,"latitude":25.27713064,"longitude":55.296249,"altitude":9.646382,"pitch":3.6609137,"roll":-1.1384652,"yaw":-58.92196,"battery":91.69949,"throttle":0.09216833,"speed":0.0133520365,"flight_mode":"Auto","gps_fix":true}
{"drone_id":1,"timestamp":1746050448895,"latitude":25.2771409,"longitude":55.296249,"altitude":46.031055,"pitch":3.124182,"roll":-0.31791496,"yaw":-60.010586,"battery":91.64949,"throttle":0.55865395,"speed":5.172656,"flight_mode":"Auto","gps_fix":true}
{"drone_id":1,"timestamp":1746050448995,"latitude":25.27715116,"longitude":55.296249,"altitude":110.34169,"pitch":3.2266104,"roll":-1.276571,"yaw":-55.508247,"battery":91.59949,"throttle":0.84927154,"speed":14.763487,"flight_mode":"Auto","gps_fix":true}
{"drone_id":1,"timestamp":1746050449095,"latitude":25.27716142,"longitude":55.296249,"altitude":37.61367,"pitch":3.7400322,"roll":-0.57605267,"yaw":-56.75315,"battery":91.549484,"throttle":0.9060931,"speed":0.13759196,"flight_mode":"Auto","gps_fix":true}
{"drone_id":1,"timestamp":1746050449196,"latitude":25.27717168,"longitude":55.296249,"altitude":55.048683,"pitch":4.4706917,"roll":-0.4149623,"yaw":-58.79371,"battery":91.49948,"throttle":0.94155085,"speed":10.196281,"flight_mode":"Auto","gps_fix":true}
{"drone_id":1,"timestamp":1746050449296,"latitude":25.27718194,"longitude":55.296249,"altitude":95.19815,"pitch":5.341445,"roll":0.44285607,"yaw":-58.004612,"battery":91.44948,"throttle":0.87367976,"speed":4.1021023,"flight_mode":"Auto","gps_fix":true}
{"drone_id":1,"timestamp":1746050449396,"latitude":25.277192199999998,"longitude":55.296249,"altitude":49.83596,"pitch":6.1590924,"roll":-0.5089648,"yaw":-55.06746,"battery":91.399475,"throttle":0.83079445,"speed":6.9238276,"flight_mode":"Auto","gps_fix":true}
{"drone_id":1,"timestamp":1746050449497,"latitude":25.277202459999998,"longitude":55.296249,"altitude":73.44282,"pitch":5.461793,"roll":-1.3313241,"yaw":-51.744152,"battery":91.34947,"throttle":0.12719858,"speed":13.695721,"flight_mode":"Auto","gps_fix":true}
{"drone_id":1,"timestamp":1746050449597,"latitude":25.277212719999998,"longitude":55.296249,"altitude":111.77165,"pitch":5.140998,"roll":-1.9702666,"yaw":-53.159817,"battery":91.29947,"throttle":0.10108137,"speed":11.902567,"flight_mode":"Auto","gps_fix":true}
{"drone_id":1,"timestamp":1746050449697,"latitude":25.277222979999998,"longitude":55.296249,"altitude":84.434265,"pitch":5.710854,"roll":-1.0626042,"yaw":-55.31037,"battery":91.249466,"throttle":0.54288375,"speed":3.6116214,"flight_mode":"Auto","gps_fix":true}
{"drone_id":1,"timestamp":1746050449798,"latitude":25.277233239999997,"longitude":55.296249,"altitude":64.31179,"pitch":5.104088,"roll":-1.9802468,"yaw":-59.044838,"battery":91.19946,"throttle":0.64246273,"speed":4.611758,"flight_mode":"Auto","gps_fix":true}
{"drone_id":1,"timestamp":1746050449898,"latitude":25.277243499999997,"longitude":55.296249,"altitude":14.686632,"pitch":5.571599,"roll":-1.8256848,"yaw":-54.11331,"battery":91.14946,"throttle":0.7249303,"speed":9.934655,"flight_mode":"Auto","gps_fix":true}
{"drone_id":1,"timestamp":1746050449998,"latitude":25.27725376,"longitude":55.296249,"altitude":76.51155,"pitch":4.5761743,"roll":-1.5096781,"yaw":-54.227386,"battery":91.09946,"throttle":0.07899141,"speed":2.4158854,"flight_mode":"Auto","gps_fix":true}
{"drone_id":1,"timestamp":1746050450099,"latitude":25.27726402,"longitude":55.296249,"altitude":52.44258,"pitch":4.328745,"roll":-0.6254194,"yaw":-56.83106,"battery":91.04945,"throttle":0.95749295,"speed":6.7088556,"flight_mode":"Auto","gps_fix":true}
{"drone_id":1,"timestamp":1746050450199,"latitude":25.27727428,"longitude":55.296249,"altitude":92.74841,"pitch":5.04012,"roll":-0.24044895,"yaw":-57.886093,"battery":90.99945,"throttle":0.20274723,"speed":2.3677487,"flight_mode":"Auto","gps_fix":true}
{"drone_id":1,"timestamp":1746050450299,"latitude":25.27728454,"longitude":55.296249,"altitude":107.6464,"pitch":5.845744,"roll":0.24971223,"yaw":-59.23848,"battery":90.94945,"throttle":0.6898296,"speed":11.741001,"flight_mode":"Auto","gps_fix":true}
{"drone_id":1,"timestamp":1746050450400,"latitude":25.2772948,"longitude":55.296249,"altitude":109.829506,"pitch":5.3308635,"roll":0.5274267,"yaw":-57.612514,"battery":90.899445,"throttle":0.84508884,"speed":13.604734,"flight_mode":"Auto","gps_fix":true}
{"drone_id":1,"timestamp":1746050450500,"latitude":25.27730506,"longitude":55.296249,"altitude":30.3256,"pitch":4.9328117,"roll":0.913223,"yaw":-57.69146,"battery":90.84944,"throttle":0.5933106,"speed":7.1782227,"flight_mode":"Auto","gps_fix":true}
{"drone_id":1,"timestamp":1746050450600,"latitude":25.27731532,"longitude":55.296249,"altitude":60.074028,"pitch":5.629173,"roll":1.6584127,"yaw":-56.9864,"battery":90.79944,"throttle":0.2445848,"speed":0.9050846,"flight_mode":"Auto","gps_fix":true}
{"drone_id":1,"timestamp":1746050450701,"latitude":25.27732558,"longitude":55.296249,"altitude":39.58301,"pitch":5.584644,"roll":2.3857284,"yaw":-58.008957,"battery":90.749435,"throttle":0.6139873,"speed":1.3710237,"flight_mode":"Auto","gps_fix":true}
{"drone_id":1,"timestamp":1746050450801,"latitude":25.27733584,"longitude":55.296249,"altitude":40.950222,"pitch":5.305358,"roll":2.7763925,"yaw":-59.079185,"battery":90.69943,"throttle":0.9836968,"speed":13.635263,"flight_mode":"Auto","gps_fix":true}
{"drone_id":1,"timestamp":1746050450901,"latitude":25.2773461,"longitude":55.296249,"altitude":89.600845,"pitch":5.6571574,"roll":2.2912793,"yaw":-56.91421,"battery":90.64943,"throttle":0.2504692,"speed":2.3099792,"flight_mode":"Auto","gps_fix":true}
{"drone_id":1,"timestamp":1746050451002,"latitude":25.27735636,"longitude":55.296249,"altitude":106.080734,"pitch":6.3770485,"roll":3.2614112,"yaw":-53.45154,"battery":90.59943,"throttle":0.62691236,"speed":14.845369,"flight_mode":"Auto","gps_fix":true}
{"drone_id":1,"timestamp":1746050451102,"latitude":25.27736662,"longitude":55.296249,"altitude":85.69867,"pitch":5.6154613,"roll":2.9144802,"yaw":-51.234116,"battery":90.54942,"throttle":0.9241302,"speed":5.1511664,"flight_mode":"Auto","gps_fix":true}
{"drone_id":1,"timestamp":1746050451202,"latitude":25.27737688,"longitude":55.296249,"altitude":115.051414,"pitch":5.01213,"roll":2.2470155,"yaw":-54.721935,"battery":90.49942,"throttle":0.5584557,"speed":10.060775,"flight_mode":"Auto","gps_fix":true}
{"drone_id":1,"timestamp":1746050451303,"latitude":25.27738714,"longitude":55.296249,"altitude":74.89529,"pitch":5.664085,"roll":2.6740193,"yaw":-59.550026,"battery":90.44942,"throttle":0.7391312,"speed":4.5112286,"flight_mode":"Auto","gps_fix":true}
{"drone_id":1,"timestamp":1746050451403,"latitude":25.277397399999998,"longitude":55.296249,"altitude":118.1533,"pitch":6.502688,"roll":2.1521006,"yaw":-55.34869,"battery":90.399414,"throttle":0.7763407,"speed":2.2166884,"flight_mode":"Auto","gps_fix":true}
{"drone_id":1,"timestamp":1746050451504,"latitude":25.277407659999998,"longitude":55.296249,"altitude":15.2628565,"pitch":5.9868584,"roll":1.8272045,"yaw":-53.757294,"battery":90.34941,"throttle":0.3995043,"speed":4.529772,"flight_mode":"Auto","gps_fix":true}
{"drone_id":1,"timestamp":1746050451604,"latitude":25.27741792,"longitude":55.296249,"altitude":110.56485,"pitch":5.2681828,"roll":1.3511667,"yaw":-52.710846,"battery":90.29941,"throttle":0.7210195,"speed":4.480695,"flight_mode":"Auto","gps_fix":true}
{"drone_id":1,"timestamp":1746050451704,"latitude":25.27742818,"longitude":55.296249,"altitude":62.47437,"pitch":5.730175,"roll":1.2427647,"yaw":-57.51696,"battery":90.249405,"throttle":0.05515802,"speed":6.914683,"flight_mode":"Auto","gps_fix":true}
{"drone_id":1,"timestamp":1746050451805,"latitude":25.27743844,"longitude":55.296249,"altitude":53.810463,"pitch":6.1150694,"roll":0.7693305,"yaw":-53.503822,"battery":90.1994,"throttle":0.9995936,"speed":5.325628,"flight_mode":"Auto","gps_fix":true}
{"drone_id":1,"timestamp":1746050451905,"latitude":25.2774487,"longitude":55.296249,"altitude":84.45807,"pitch":5.1799726,"roll":0.29671383,"yaw":-55.249786,"battery":90.1494,"throttle":0.20894814,"speed":4.5152593,"flight_mode":"Auto","gps_fix":true}
{"drone_id":1,"timestamp":1746050452005,"latitude":25.27745896,"longitude":55.296249,"altitude":57.70483,"pitch":4.354781,"roll":0.39099026,"yaw":-53.545334,"battery":90.099396,"throttle":0.19247556,"speed":10.885712,"flight_mode":"Auto","gps_fix":true}
{"drone_id":1,"timestamp":1746050452106,"latitude":25.27746922,"longitude":55.296249,"altitude":44.00953,"pitch":4.6569324,"roll":0.40308738,"yaw":-56.865578,"battery":90.04939,"throttle":0.41150403,"speed":8.19491,"flight_mode":"Auto","gps_fix":true}
{"drone_id":1,"timestamp":1746050452206,"latitude":25.27747948,"longitude":55.296249,"altitude":94.26556,"pitch":4.9331465,"roll":0.8481972,"yaw":-59.957916,"battery":89.99939,"throttle":0.8586575,"speed":2.889576,"flight_mode":"Auto","gps_fix":true}
{"drone_id":1,"timestamp":1746050452306,"latitude":25.27748974,"longitude":55.296249,"altitude":32.89162,"pitch":4.5346107,"roll":-0.14777923,"yaw":-62.974808,"battery":89.94939,"throttle":0.20517695,"speed":1.6611475,"flight_mode":"Auto","gps_fix":true}
{"drone_id":1,"timestamp":1746050452407,"latitude":25.2775,"longitude":55.296249,"altitude":30.865602,"pitch":3.8571057,"roll":-0.81720614,"yaw":-61.084415,"battery":89.89938,"throttle":0.32215977,"speed":1.5132201,"flight_mode":"Auto","gps_fix":true}
{"drone_id":1,"timestamp":1746050452507,"latitude":25.2775,"longitude":55.29626402,"altitude":118.88065,"pitch":4.526075,"roll":-0.15015817,"yaw":-65.36362,"battery":89.84938,"throttle":0.08234823,"speed":14.843382,"flight_mode":"Auto","gps_fix":true}
{"drone_id":1,"timestamp":1746050452607,"latitude":25.2775,"longitude":55.29627904,"altitude":112.7039,"pitch":4.91383,"roll":0.48402047,"yaw":-64.77599,"battery":89.79938,"throttle":0.1429733,"speed":6.9533086,"flight_mode":"Auto","gps_fix":true}
{"drone_id":1,"timestamp":1746050452708,"latitude":25.2775,"longitude":55.29629406,"altitude":62.154778,"pitch":4.8861146,"roll":-0.01594472,"yaw":-62.291775,"battery":89.749374,"throttle":0.6268985,"speed":10.052183,"flight_mode":"Auto","gps_fix":true}
{"drone_id":1,"timestamp":1746050452808,"latitude":25.2775,"longitude":55.29630908,"altitude":31.375694,"pitch":5.0179043,"roll":0.44815493,"yaw":-57.795746,"battery":89.69937,"throttle":0.2028656,"speed":10.385982,"flight_mode":"Auto","gps_fix":true}
{"drone_id":1,"timestamp":1746050452908,"latitude":25.2775,"longitude":55.2963241,"altitude":75.65921,"pitch":4.6811013,"roll":1.1659665,"yaw":-54.476692,"battery":89.64937,"throttle":0.6027422,"speed":9.720957,"flight_mode":"Auto","gps_fix":true}
{"drone_id":1,"timestamp":1746050453009,"latitude":25.2775,"longitude":55.29633912,"altitude":107.884384,"pitch":3.801222,"roll":2.0495296,"yaw":-53.425358,"battery":89.599365,"throttle":0.04790604,"speed":4.034838,"flight_mode":"Auto","gps_fix":true}
{"drone_id":1,"timestamp":1746050453109,"latitude":25.2775,"longitude":55.296354140000005,"altitude":34.476097,"pitch":4.6913548,"roll":2.106255,"yaw":-49.736313,"battery":89.54936,"throttle":0.045817018,"speed":2.8271663,"flight_mode":"Auto","gps_fix":true}
{"drone_id":1,"timestamp":1746050453209,"latitude":25.2775,"longitude":55.296369160000005,"altitude":25.490585,"pitch":5.2563515,"roll":3.0660465,"yaw":-48.154564,"battery":89.49936,"throttle":0.066994905,"speed":0.5792445,"flight_mode":"Auto","gps_fix":true}
{"drone_id":1,"timestamp":1746050453310,"latitude":25.2775,"longitude":55.296384180000004,"altitude":11.58843,"pitch":5.062271,"roll":3.5660915,"yaw":-44.704098,"battery":89.449356,"throttle":0.17383444,"speed":6.138112,"flight_mode":"Auto","gps_fix":true}
{"drone_id":1,"timestamp":1746050453410,"latitude":25.2775,"longitude":55.2963992,"altitude":54.229103,"pitch":4.844532,"roll":3.457208,"yaw":-46.986557,"battery":89.39935,"throttle":0.50361454,"speed":6.8404016,"flight_mode":"Auto","gps_fix":true}
{"drone_id":1,"timestamp":1746050453510,"latitude":25.2775,"longitude":55.29641422,"altitude":16.212587,"pitch":4.387486,"roll":3.6864111,"yaw":-45.571426,"battery":89.34935,"throttle":0.8344116,"speed":4.4565744,"flight_mode":"Auto","gps_fix":true}
{"drone_id":1,"timestamp":1746050453611,"latitude":25.2775,"longitude":55.29642924,"altitude":27.86642,"pitch":3.4446063,"roll":4.275159,"yaw":-43.833355,"battery":89.29935,"throttle":0.684641,"speed":2.7433186,"flight_mode":"Auto","gps_fix":true}
{"drone_id":1,"timestamp":1746050453711,"latitude":25.2775,"longitude":55.29644426,"altitude":97.23571,"pitch":3.188749,"roll":3.689403,"yaw":-47.227997,"battery":89.249344,"throttle":0.11117935,"speed":5.533385,"flight_mode":"Auto","gps_fix":true}
{"drone_id":1,"timestamp":1746050453811,"latitude":25.2775,"longitude":55.29645928,"altitude":0.17439365,"pitch":3.0310714,"roll":3.68808,"yaw":-49.23718,"battery":89.19934,"throttle":0.36795712,"speed":14.912645,"flight_mode":"Auto","gps_fix":true}
{"drone_id":1,"timestamp":1746050453912,"latitude":25.2775,"longitude":55.2964743,"altitude":17.241367,"pitch":3.6359086,"roll":3.7216966,"yaw":-45.194656,"battery":89.14934,"throttle":0.12165153,"speed":5.259036,"flight_mode":"Auto","gps_fix":true}
{"drone_id":1,"timestamp":1746050454012,"latitude":25.2775,"longitude":55.29648932,"altitude":13.113098,"pitch":3.6181726,"roll":4.4738045,"yaw":-47.531807,"battery":89.099335,"throttle":0.16476154,"speed":1.6145325,"flight_mode":"Auto","gps_fix":true}
{"drone_id":1,"timestamp":1746050454112,"latitude":25.2775,"longitude":55.29650434,"altitude":59.6105,"pitch":4.4021626,"roll":4.4372115,"yaw":-49.535225,"battery":89.04933,"throttle":0.2567253,"speed":9.782555,"flight_mode":"Auto","gps_fix":true}
{"drone_id":1,"timestamp":1746050454213,"latitude":25.2775,"longitude":55.29651936,"altitude":59.141006,"pitch":4.0282993,"roll":3.490877,"yaw":-51.247837,"battery":88.99933,"throttle":0.19834733,"speed":5.278251,"flight_mode":"Auto","gps_fix":true}
{"drone_id":1,"timestamp":1746050454313,"latitude":25.2775,"longitude":55.296534380000004,"altitude":23.085552,"pitch":4.947283,"roll":3.2760973,"yaw":-56.159145,"battery":88.949326,"throttle":0.43930697,"speed":14.56958,"flight_mode":"Auto","gps_fix":true}
{"drone_id":1,"timestamp":1746050454413,"latitude":25.2775,"longitude":55.2965494,"altitude":22.445198,"pitch":4.7194157,"roll":2.593274,"yaw":-58.918686,"battery":88.89932,"throttle":0.8279326,"speed":2.8661156,"flight_mode":"Auto","gps_fix":true}
{"drone_id":1,"timestamp":1746050454514,"latitude":25.2775,"longitude":55.29656442,"altitude":38.381165,"pitch":5.464843,"roll":2.6371377,"yaw":-61.382446,"battery":88.84932,"throttle":0.50483835,"speed":3.523221,"flight_mode":"Auto","gps_fix":true}
{"drone_id":1,"timestamp":1746050454614,"latitude":25.2775,"longitude":55.29657944,"altitude":117.27752,"pitch":4.521991,"roll":3.4839253,"yaw":-65.61948,"battery":88.79932,"throttle":0.31074,"speed":2.4990857,"flight_mode":"Auto","gps_fix":true}
{"drone_id":1,"timestamp":1746050454714,"latitude":25.2775,"longitude":55.29659446,"altitude":60.475887,"pitch":5.2402353,"roll":3.8769948,"yaw":-63.509266,"battery":88.74931,"throttle":0.27349794,"speed":5.561138,"flight_mode":"Auto","gps_fix":true}
{"drone_id":1,"timestamp":1746050454815,"latitude":25.2775,"longitude":55.29660948,"altitude":26.411518,"pitch":6.12728,"roll":2.9131937,"yaw":-64.73067,"battery":88.69931,"throttle":0.5495758,"speed":2.5237799,"flight_mode":"Auto","gps_fix":true}
{"drone_id":1,"timestamp":1746050454915,"latitude":25.2775,"longitude":55.2966245,"altitude":97.38036,"pitch":5.189931,"roll":2.5295243,"yaw":-60.67238,"battery":88.64931,"throttle":0.8301172,"speed":5.1007657,"flight_mode":"Auto","gps_fix":true}
{"drone_id":1,"timestamp":1746050455015,"latitude":25.2775,"longitude":55.29663952,"altitude":29.044949,"pitch":5.369141,"roll":2.6221042,"yaw":-58.40362,"battery":88.599304,"throttle":0.43778348,"speed":11.750897,"flight_mode":"Auto","gps_fix":true}
{"drone_id":1,"timestamp":1746050455116,"latitude":25.2775,"longitude":55.29665454,"altitude":13.356385,"pitch":4.4312987,"roll":3.598646,"yaw":-61.377472,"battery":88.5493,"throttle":0.28576362,"speed":8.425344,"flight_mode":"Auto","gps_fix":true}
{"drone_id":1,"timestamp":1746050455216,"latitude":25.2775,"longitude":55.29666956,"altitude":64.566536,"pitch":5.011962,"roll":3.1747322,"yaw":-63.15593,"battery":88.4993,"throttle":0.4765247,"speed":13.8873625,"flight_mode":"Auto","gps_fix":true}
{"drone_id":1,"timestamp":1746050455316,"latitude":25.2775,"longitude":55.29668458,"altitude":30.75401,"pitch":4.7110376,"roll":2.2138097,"yaw":-60.93569,"battery":88.449295,"throttle":0.12966418,"speed":1.0431308,"flight_mode":"Auto","gps_fix":true}
{"drone_id":1,"timestamp":1746050455417,"latitude":25.2775,"longitude":55.2966996,"altitude":9.342914,"pitch":5.3714876,"roll":3.0963569,"yaw":-62.23589,"battery":88.39929,"throttle":0.17830002,"speed":11.493011,"flight_mode":"Auto","gps_fix":true}
{"drone_id":1,"timestamp":1746050455517,"latitude":25.2775,"longitude":55.296714619999996,"altitude":18.037647,"pitch":5.664896,"roll":2.4442556,"yaw":-64.35894,"battery":88.34929,"throttle":0.52161837,"speed":6.288475,"flight_mode":"Auto","gps_fix":true}
{"drone_id":1,"timestamp":1746050455617,"latitude":25.2775,"longitude":55.29672964,"altitude":30.957886,"pitch":4.774765,"roll":2.858217,"yaw":-60.052364,"battery":88.299286,"throttle":0.7176256,"speed":0.6423944,"flight_mode":"Auto","gps_fix":true}
{"drone_id":1,"timestamp":1746050455718,"latitude":25.2775,"longitude":55.29674466,"altitude":19.118786,"pitch":3.8016746,"roll":2.4395235,"yaw":-56.180603,"battery":88.24928,"throttle":0.9651476,"speed":2.8145437,"flight_mode":"Auto","gps_fix":true}
{"drone_id":1,"timestamp":1746050455818,"latitude":25.2775,"longitude":55.29675968,"altitude":36.038963,"pitch":4.7866526,"roll":3.2273817,"yaw":-60.030132,"battery":88.19928,"throttle":0.14305985,"speed":13.02483,"flight_mode":"Auto","gps_fix":true}
{"drone_id":1,"timestamp":1746050455918,"latitude":25.2775,"longitude":55.2967747,"altitude":74.7076,"pitch":5.0504827,"roll":2.6852076,"yaw":-57.243477,"battery":88.14928,"throttle":0.90227413,"speed":5.7012444,"flight_mode":"Auto","gps_fix":true}
